var mmcAsia = [
  {
    "ID": 25,
    "geoID": "Asia-AF01",
    "Hub": "Asia",
    "Sex": "Male",
    "InterviewLanguage": "Dari / Pashto",
    "contractStartDate": "16-Oct",
    "contractEndDate": "19-Dec",
    "operationalLocationCountry": "Afghanistan",
    "RegionCity": "Kabul",
    "Reports": 149,
    "AvgReports": 15,
    "Latitude": 34.540487,
    "Longitude": 69.175108
  },
  {
    "ID": 26,
    "geoID": "Asia-AF02",
    "Hub": "Asia",
    "Sex": "Male",
    "InterviewLanguage": "Dari / Pashto",
    "contractStartDate": "16-Oct",
    "contractEndDate": "19-Dec",
    "operationalLocationCountry": "Afghanistan",
    "RegionCity": "Kabul",
    "Reports": 171,
    "AvgReports": 15,
    "Latitude": 34.540487,
    "Longitude": 69.175108
  },
  {
    "ID": 27,
    "geoID": "Asia-AF03",
    "Hub": "Asia",
    "Sex": "Female",
    "InterviewLanguage": "Dari / Pashto",
    "contractStartDate": "16-Oct",
    "contractEndDate": "19-Dec",
    "operationalLocationCountry": "Afghanistan",
    "RegionCity": "Kabul",
    "Reports": 154,
    "AvgReports": 15,
    "Latitude": 34.540487,
    "Longitude": 69.175108
  },
  {
    "ID": 28,
    "geoID": "Asia-AF04",
    "Hub": "Asia",
    "Sex": "Male",
    "InterviewLanguage": "Dari / Pashto",
    "contractStartDate": "16-Oct",
    "contractEndDate": "19-Dec",
    "operationalLocationCountry": "Afghanistan",
    "RegionCity": "Balkh",
    "Reports": 184,
    "AvgReports": 15,
    "Latitude": 36.763035,
    "Longitude": 66.899638
  },
  {
    "ID": 29,
    "geoID": "Asia-AF05",
    "Hub": "Asia",
    "Sex": "Female",
    "InterviewLanguage": "Dari / Pashto",
    "contractStartDate": "16-Oct",
    "contractEndDate": "19-Dec",
    "operationalLocationCountry": "Afghanistan",
    "RegionCity": "Balkh",
    "Reports": 184,
    "AvgReports": 15,
    "Latitude": 36.763035,
    "Longitude": 66.899638
  },
  {
    "ID": 30,
    "geoID": "Asia-AF06",
    "Hub": "Asia",
    "Sex": "Male",
    "InterviewLanguage": "Dari / Pashto",
    "contractStartDate": "16-Oct",
    "contractEndDate": "19-Dec",
    "operationalLocationCountry": "Afghanistan",
    "RegionCity": "Herat",
    "Reports": 174,
    "AvgReports": 15,
    "Latitude": 34.3553,
    "Longitude": 62.208409
  },
  {
    "ID": 31,
    "geoID": "Asia-AF07",
    "Hub": "Asia",
    "Sex": "Male",
    "InterviewLanguage": "Dari / Pashto",
    "contractStartDate": "16-Oct",
    "contractEndDate": "19-Dec",
    "operationalLocationCountry": "Afghanistan",
    "RegionCity": "Herat",
    "Reports": 152,
    "AvgReports": 15,
    "Latitude": 34.3553,
    "Longitude": 62.208409
  },
  {
    "ID": 32,
    "geoID": "Asia-AF08",
    "Hub": "Asia",
    "Sex": "Female",
    "InterviewLanguage": "Dari / Pashto",
    "contractStartDate": "16-Oct",
    "contractEndDate": "19-Dec",
    "operationalLocationCountry": "Afghanistan",
    "RegionCity": "Herat",
    "Reports": 155,
    "AvgReports": 15,
    "Latitude": 34.3553,
    "Longitude": 62.208409
  },
  {
    "ID": 33,
    "geoID": "Asia-AF09",
    "Hub": "Asia",
    "Sex": "Female",
    "InterviewLanguage": "Dari / Pashto",
    "contractStartDate": "16-Oct",
    "contractEndDate": "19-Dec",
    "operationalLocationCountry": "Afghanistan",
    "RegionCity": "Nangarhar",
    "Reports": 173,
    "AvgReports": 15,
    "Latitude": 34.246684,
    "Longitude": 70.506646
  },
  {
    "ID": 34,
    "geoID": "Asia-AF10",
    "Hub": "Asia",
    "Sex": "Male",
    "InterviewLanguage": "Dari / Pashto",
    "contractStartDate": "16-Oct",
    "contractEndDate": "19-Dec",
    "operationalLocationCountry": "Afghanistan",
    "RegionCity": "Nangarhar",
    "Reports": 176,
    "AvgReports": 15,
    "Latitude": 34.246684,
    "Longitude": 70.506646
  },
  {
    "ID": 35,
    "geoID": "Asia-AF11",
    "Hub": "Asia",
    "Sex": "Male",
    "InterviewLanguage": "Dari / Pashto",
    "contractStartDate": "16-Oct",
    "contractEndDate": "19-Dec",
    "operationalLocationCountry": "Afghanistan",
    "RegionCity": "Nangarhar",
    "Reports": 174,
    "AvgReports": 15,
    "Latitude": 34.246684,
    "Longitude": 70.506646
  },
  {
    "ID": 36,
    "geoID": "Asia-AF12",
    "Hub": "Asia",
    "Sex": "Male",
    "InterviewLanguage": "Dari / Pashto",
    "contractStartDate": "16-Oct",
    "contractEndDate": "19-Dec",
    "operationalLocationCountry": "Afghanistan",
    "RegionCity": "Kandahar",
    "Reports": 163,
    "AvgReports": 15,
    "Latitude": 31.636378,
    "Longitude": 65.759785
  },
  {
    "ID": 37,
    "geoID": "Asia-AF13",
    "Hub": "Asia",
    "Sex": "Female",
    "InterviewLanguage": "Dari / Pashto",
    "contractStartDate": "18-Oct",
    "contractEndDate": "19-Dec",
    "operationalLocationCountry": "Afghanistan",
    "RegionCity": "Kandahar",
    "Reports": 155,
    "AvgReports": 15,
    "Latitude": 31.636378,
    "Longitude": 65.759785
  },
  {
    "ID": 38,
    "geoID": "Asia-AF14",
    "Hub": "Asia",
    "Sex": "Male",
    "InterviewLanguage": "Dari / Pashto",
    "contractStartDate": "16-Oct",
    "contractEndDate": "19-Dec",
    "operationalLocationCountry": "Afghanistan",
    "RegionCity": "Kandahar",
    "Reports": 163,
    "AvgReports": 15,
    "Latitude": 31.636378,
    "Longitude": 65.759785
  },
  {
    "ID": 39,
    "geoID": "Asia-AF15",
    "Hub": "Asia",
    "Sex": "Male",
    "InterviewLanguage": "Dari / Pashto",
    "contractStartDate": "16-Oct",
    "contractEndDate": "19-Dec",
    "operationalLocationCountry": "Afghanistan",
    "RegionCity": "Kunduz",
    "Reports": 177,
    "AvgReports": 15,
    "Latitude": 36.715454,
    "Longitude": 68.878226
  },
  {
    "ID": 40,
    "geoID": "Asia-AF16",
    "Hub": "Asia",
    "Sex": "Male",
    "InterviewLanguage": "Dari / Pashto",
    "contractStartDate": "16-Oct",
    "contractEndDate": "19-Dec",
    "operationalLocationCountry": "Afghanistan",
    "RegionCity": "Kunduz",
    "Reports": 176,
    "AvgReports": 15,
    "Latitude": 36.715454,
    "Longitude": 68.878226
  },
  {
    "ID": 41,
    "geoID": "Asia-AF17",
    "Hub": "Asia",
    "Sex": "Male",
    "InterviewLanguage": "Dari / Pashto",
    "contractStartDate": "16-Oct",
    "contractEndDate": "19-Dec",
    "operationalLocationCountry": "Afghanistan",
    "RegionCity": "Nimruz",
    "Reports": 175,
    "AvgReports": 15,
    "Latitude": 30.970419,
    "Longitude": 61.844529
  },
  {
    "ID": 42,
    "geoID": "Asia-AF18",
    "Hub": "Asia",
    "Sex": "Female",
    "InterviewLanguage": "Dari / Pashto",
    "contractStartDate": "16-Oct",
    "contractEndDate": "19-Dec",
    "operationalLocationCountry": "Afghanistan",
    "RegionCity": "Nimruz",
    "Reports": 176,
    "AvgReports": 15,
    "Latitude": 30.970419,
    "Longitude": 61.844529
  },
  {
    "ID": 43,
    "geoID": "Asia-AF19",
    "Hub": "Asia",
    "Sex": "Male",
    "InterviewLanguage": "Dari / Pashto",
    "contractStartDate": "18-Mar",
    "contractEndDate": "19-Dec",
    "operationalLocationCountry": "Afghanistan",
    "RegionCity": "Nimruz",
    "Reports": 140,
    "AvgReports": 15,
    "Latitude": 30.970419,
    "Longitude": 61.844529
  },
  {
    "ID": 44,
    "geoID": "Asia-India01",
    "Hub": "Asia",
    "Sex": "Male",
    "InterviewLanguage": "Dari / Pashto",
    "contractStartDate": "18-Apr",
    "contractEndDate": "19-Dec",
    "operationalLocationCountry": "India",
    "RegionCity": "New Delhi",
    "Reports": 75,
    "AvgReports": 7,
    "Latitude": 28.58497,
    "Longitude": 77.246265
  },
  {
    "ID": 45,
    "geoID": "Asia-India02",
    "Hub": "Asia",
    "Sex": "Female",
    "InterviewLanguage": "Dari / Pashto",
    "contractStartDate": "18-Apr",
    "contractEndDate": "19-Dec",
    "operationalLocationCountry": "India",
    "RegionCity": "New Delhi",
    "Reports": 75,
    "AvgReports": 7,
    "Latitude": 28.58497,
    "Longitude": 77.246265
  },
  {
    "ID": 46,
    "geoID": "Asia-India03",
    "Hub": "Asia",
    "Sex": "Male",
    "InterviewLanguage": "Dari / Pashto",
    "contractStartDate": "18-Apr",
    "contractEndDate": "19-Dec",
    "operationalLocationCountry": "India",
    "RegionCity": "New Delhi",
    "Reports": 75,
    "AvgReports": 7,
    "Latitude": 28.58497,
    "Longitude": 77.246265
  },
  {
    "ID": 47,
    "geoID": "Asia-India04",
    "Hub": "Asia",
    "Sex": "Male",
    "InterviewLanguage": "Dari / Pashto",
    "contractStartDate": "18-Apr",
    "contractEndDate": "19-Dec",
    "operationalLocationCountry": "India",
    "RegionCity": "New Delhi",
    "Reports": 75,
    "AvgReports": 7,
    "Latitude": 28.567482,
    "Longitude": 77.242433
  },
  {
    "ID": 48,
    "geoID": "Asia-India05",
    "Hub": "Asia",
    "Sex": "Female",
    "InterviewLanguage": "Dari / Pashto",
    "contractStartDate": "18-Apr",
    "contractEndDate": "19-Dec",
    "operationalLocationCountry": "India",
    "RegionCity": "New Delhi",
    "Reports": 75,
    "AvgReports": 7,
    "Latitude": 28.567482,
    "Longitude": 77.242433
  },
  {
    "ID": 49,
    "geoID": "Asia-Indo01",
    "Hub": "Asia",
    "Sex": "Male",
    "InterviewLanguage": "Dari / Pashto",
    "contractStartDate": "18-Apr",
    "contractEndDate": "19-Dec",
    "operationalLocationCountry": "Indonesia",
    "RegionCity": "Jakarta",
    "Reports": 90,
    "AvgReports": 10,
    "Latitude": -6.189429,
    "Longitude": 106.843243
  },
  {
    "ID": 50,
    "geoID": "Asia-Indo02",
    "Hub": "Asia",
    "Sex": "Male",
    "InterviewLanguage": "Dari / Pashto",
    "contractStartDate": "18-Apr",
    "contractEndDate": "19-Dec",
    "operationalLocationCountry": "Indonesia",
    "RegionCity": "Bogor",
    "Reports": 115,
    "AvgReports": 12,
    "Latitude": -6.514287,
    "Longitude": 106.797429
  },
  {
    "ID": 51,
    "geoID": "Asia-Indo03",
    "Hub": "Asia",
    "Sex": "Male",
    "InterviewLanguage": "Dari / Pashto",
    "contractStartDate": "18-Apr",
    "contractEndDate": "19-Dec",
    "operationalLocationCountry": "Indonesia",
    "RegionCity": "Bogor",
    "Reports": 128,
    "AvgReports": 13,
    "Latitude": -6.514287,
    "Longitude": 106.797429
  },
  {
    "ID": 52,
    "geoID": "Asia-Indo04",
    "Hub": "Asia",
    "Sex": "Female",
    "InterviewLanguage": "Dari / Pashto",
    "contractStartDate": "18-Apr",
    "contractEndDate": "19-Dec",
    "operationalLocationCountry": "Indonesia",
    "RegionCity": "Jakarta",
    "Reports": 90,
    "AvgReports": 10,
    "Latitude": -6.189429,
    "Longitude": 106.843243
  },
  {
    "ID": 53,
    "geoID": "Asia-Indo05",
    "Hub": "Asia",
    "Sex": "Male",
    "InterviewLanguage": "Dari / Pashto",
    "contractStartDate": "18-Apr",
    "contractEndDate": "19-Dec",
    "operationalLocationCountry": "Indonesia",
    "RegionCity": "Jakarta",
    "Reports": 119,
    "AvgReports": 12,
    "Latitude": -6.189429,
    "Longitude": 106.843243
  },
  {
    "ID": 54,
    "geoID": "Asia-Indo06",
    "Hub": "Asia",
    "Sex": "Female",
    "InterviewLanguage": "Dari / Pashto",
    "contractStartDate": "18-Apr",
    "contractEndDate": "19-Dec",
    "operationalLocationCountry": "Indonesia",
    "RegionCity": "Jakarta",
    "Reports": 90,
    "AvgReports": 10,
    "Latitude": -6.189429,
    "Longitude": 106.843243
  },
  {
    "ID": 55,
    "geoID": "Asia-Ger01",
    "Hub": "Asia",
    "Sex": "Male",
    "InterviewLanguage": "Dari / Pashto",
    "contractStartDate": "18-Apr",
    "contractEndDate": "19-Dec",
    "operationalLocationCountry": "Germany",
    "RegionCity": "Berlin",
    "Reports": 45,
    "AvgReports": 5,
    "Latitude": 52.50689,
    "Longitude": 13.426095
  },
  {
    "ID": 56,
    "geoID": "Asia-Ger02",
    "Hub": "Asia",
    "Sex": "Male",
    "InterviewLanguage": "Dari / Pashto",
    "contractStartDate": "18-Apr",
    "contractEndDate": "19-Dec",
    "operationalLocationCountry": "Germany",
    "RegionCity": "Berlin",
    "Reports": 40,
    "AvgReports": 5,
    "Latitude": 52.50689,
    "Longitude": 13.426095
  },
  {
    "ID": 57,
    "geoID": "Asia-Ger03",
    "Hub": "Asia",
    "Sex": "Male",
    "InterviewLanguage": "Dari / Pashto",
    "contractStartDate": "18-Apr",
    "contractEndDate": "19-Dec",
    "operationalLocationCountry": "Germany",
    "RegionCity": "Berlin",
    "Reports": 45,
    "AvgReports": 5,
    "Latitude": 52.50689,
    "Longitude": 13.426095
  },
  {
    "ID": 58,
    "geoID": "Asia-Ger04",
    "Hub": "Asia",
    "Sex": "Male",
    "InterviewLanguage": "Dari / Pashto",
    "contractStartDate": "18-Apr",
    "contractEndDate": "19-Dec",
    "operationalLocationCountry": "Germany",
    "RegionCity": "Berlin",
    "Reports": 45,
    "AvgReports": 5,
    "Latitude": 52.50689,
    "Longitude": 13.426095
  },
  {
    "ID": 62,
    "geoID": "Asia-Mal01",
    "Hub": "Asia",
    "Sex": "Female",
    "InterviewLanguage": "Rohingya & Burmese",
    "contractStartDate": "1-Oct-18",
    "contractEndDate": "19-Dec",
    "operationalLocationCountry": "Malaysia",
    "RegionCity": "Kuala Lumpur",
    "Reports": 40,
    "AvgReports": 10,
    "Latitude": 3.144672,
    "Longitude": 101.690767
  },
  {
    "ID": 63,
    "geoID": "Asia-Mal02",
    "Hub": "Asia",
    "Sex": "Male",
    "InterviewLanguage": "Rohingya & Burmese",
    "contractStartDate": "1-Oct-18",
    "contractEndDate": "19-Dec",
    "operationalLocationCountry": "Malaysia",
    "RegionCity": "Kuala Lumpur",
    "Reports": 40,
    "AvgReports": 10,
    "Latitude": 3.144672,
    "Longitude": 101.690767
  },
  {
    "ID": 64,
    "geoID": "Asia-Mal03",
    "Hub": "Asia",
    "Sex": "Female",
    "InterviewLanguage": "Rohingya & Burmese",
    "contractStartDate": "1-Oct-18",
    "contractEndDate": "19-Dec",
    "operationalLocationCountry": "Malaysia",
    "RegionCity": "Kuala Lumpur",
    "Reports": 40,
    "AvgReports": 10,
    "Latitude": 3.144672,
    "Longitude": 101.690767
  },
  {
    "ID": 65,
    "geoID": "Asia-Mal04",
    "Hub": "Asia",
    "Sex": "Female",
    "InterviewLanguage": "Rohingya",
    "contractStartDate": "1-Oct-18",
    "contractEndDate": "19-Dec",
    "operationalLocationCountry": "Malaysia",
    "RegionCity": "Kuala Lumpur",
    "Reports": 40,
    "AvgReports": 10,
    "Latitude": 3.144672,
    "Longitude": 101.690767
  },
  {
    "ID": 66,
    "geoID": "Asia-Mal05",
    "Hub": "Asia",
    "Sex": "Male",
    "InterviewLanguage": "Rohingya & Burmese",
    "contractStartDate": "19-Apr",
    "contractEndDate": "19-Dec",
    "operationalLocationCountry": "Malaysia",
    "RegionCity": "Ampang",
    "Reports": 20,
    "AvgReports": 10,
    "Latitude": 3.337318,
    "Longitude": 101.249006
  },
  {
    "ID": 67,
    "geoID": "Asia-Mal06",
    "Hub": "Asia",
    "Sex": "Male",
    "InterviewLanguage": "Bangla",
    "contractStartDate": "19-Apr",
    "contractEndDate": "19-Dec",
    "operationalLocationCountry": "Malaysia",
    "RegionCity": "Kuala Lumpur",
    "Reports": 20,
    "AvgReports": 10,
    "Latitude": 3.144672,
    "Longitude": 101.690767
  },
  {
    "ID": 68,
    "geoID": "Asia-Mal07",
    "Hub": "Asia",
    "Sex": "Male",
    "InterviewLanguage": "Bangla",
    "contractStartDate": "19-Apr",
    "contractEndDate": "19-Dec",
    "operationalLocationCountry": "Malaysia",
    "RegionCity": "Kuala Lumpur",
    "Reports": 20,
    "AvgReports": 10,
    "Latitude": 3.144672,
    "Longitude": 101.690767
  }
]